City_ID,City,Lat,Lng,Max Temp,Humidity,Cloudiness,Wind Speed,Country,Date
0,saquarema,-22.92,-42.5103,84.34,84,34,3.18,BR,1675625126
1,gushikawa,26.3544,127.8686,65.79,94,20,0.0,JP,1675625126
2,bilibino,68.0546,166.4372,-29.42,100,100,1.86,RU,1675625127
3,iberia,29.9502,-91.7507,70.97,49,75,6.91,US,1675625127
4,shimoda,34.6667,138.95,46.31,66,0,8.23,JP,1675625128
5,kruisfontein,-34.0033,24.7314,74.88,81,54,10.51,ZA,1675625128
6,clyde river,70.4692,-68.5914,-12.77,58,100,16.11,CA,1675625129
7,la ronge,55.1001,-105.2842,32.25,74,75,8.05,CA,1675625129
8,corinto,37.9407,22.9573,42.89,89,100,12.03,GR,1675625130
9,bluff,-46.6,168.3333,58.8,87,79,25.23,NZ,1675625130
10,port alfred,-33.5906,26.891,72.18,93,6,5.01,ZA,1675625086
11,portland,45.5234,-122.6762,50.97,87,75,16.11,US,1675624834
12,tuktoyaktuk,69.4541,-133.0374,-45.4,66,20,2.3,CA,1675625131
13,avarua,-21.2078,-159.775,82.45,83,75,12.66,CK,1675625096
14,cockburn town,21.4612,-71.1419,80.56,65,40,14.97,TC,1675625132
15,faanui,-16.4833,-151.75,81.28,75,8,14.56,PF,1675625132
16,laguna,38.421,-121.4238,57.18,76,0,14.97,US,1675625133
17,rikitea,-23.1203,-134.9692,78.76,75,12,15.79,PF,1675625133
18,kapaa,22.0752,-159.319,75.52,90,75,17.27,US,1675625133
19,ilulissat,69.2167,-51.1,3.22,72,75,10.36,GL,1675625134
20,nikolskoye,59.7035,30.7861,22.91,85,100,7.14,RU,1675625134
21,puerto ayora,-0.7393,-90.3518,85.96,88,14,7.0,EC,1675625135
22,nabinagar,23.8917,90.9733,61.14,42,5,2.33,BD,1675625135
23,new norfolk,-42.7826,147.0587,58.5,64,100,3.0,AU,1675625136
24,mataura,-46.1927,168.8643,56.98,95,100,12.64,NZ,1675625136
25,srednekolymsk,67.45,153.6833,-34.83,100,100,5.88,RU,1675625137
26,atuona,-9.8,-139.0333,78.22,80,20,16.71,PF,1675625137
27,waingapu,-9.6567,120.2641,77.45,89,100,11.74,ID,1675625138
28,qaqortoq,60.7167,-46.0333,19.35,92,100,10.02,GL,1675625138
29,luzhou,28.8724,105.4405,57.79,60,100,2.68,CN,1675625027
30,auki,-8.7676,160.7034,76.78,94,100,12.37,SB,1675625139
31,butaritari,3.0707,172.7902,80.49,82,100,19.24,KI,1675625139
32,yellowknife,62.456,-114.3525,-12.48,77,100,9.22,CA,1675625084
33,akyab,20.15,92.9,66.2,56,95,10.78,MM,1675625140
34,ginir,7.1333,40.7,62.51,23,7,3.85,ET,1675625140
35,makakilo city,21.3469,-158.0858,77.32,72,0,17.27,US,1675625141
36,innisfail,-17.5333,146.0333,76.46,93,100,2.73,AU,1675625141
37,norman wells,65.282,-126.8329,-23.76,76,75,0.0,CA,1675625117
38,lebu,-37.6167,-73.65,65.7,76,6,20.27,CL,1675625142
39,saint-philippe,-21.3585,55.7679,80.19,87,91,10.47,RE,1675625142
40,hobart,-42.8794,147.3294,58.86,74,75,16.11,AU,1675625143
41,sembakung,3.8167,117.25,72.73,99,36,2.04,ID,1675625143
42,punta arenas,-53.15,-70.9167,55.51,38,0,34.52,CL,1675624972
43,maamba,-17.3667,27.15,71.06,89,100,1.99,ZM,1675625144
44,swan hill,-35.3378,143.5544,59.25,70,0,6.13,AU,1675625144
45,san mateo del mar,16.2,-95.0,77.72,63,0,34.92,MX,1675625144
46,tautira,-17.7333,-149.15,81.01,76,95,14.52,PF,1675625145
47,takhtamygda,54.1,123.5667,-22.61,100,100,1.19,RU,1675625145
48,coquimbo,-29.9533,-71.3436,73.13,64,0,17.27,CL,1675624918
49,vila franca do campo,37.7167,-25.4333,59.41,86,26,6.04,PT,1675625146
50,lamont,35.2597,-118.9143,57.47,58,44,11.72,US,1675625146
51,san andres,12.5847,-81.7006,84.22,65,20,14.97,CO,1675625147
52,busselton,-33.65,115.3333,66.18,83,30,14.05,AU,1675625071
53,castro,-24.7911,-50.0119,76.98,57,77,7.27,BR,1675625147
54,hermanus,-34.4187,19.2345,68.81,81,84,9.44,ZA,1675625148
55,arraial do cabo,-22.9661,-42.0278,84.16,70,40,8.05,BR,1675625097
56,husavik,66.0449,-17.3389,45.36,80,100,35.12,IS,1675625148
57,nacala,-14.5428,40.6728,77.94,86,100,7.58,MZ,1675625149
58,coihaique,-45.5752,-72.0662,70.41,40,20,12.66,CL,1675625149
59,bathsheba,13.2167,-59.5167,83.01,65,40,24.16,BB,1675625149
60,rocha,-34.4833,-54.3333,78.89,49,6,10.07,UY,1675625150
61,bullhead city,35.1478,-114.5683,70.93,30,0,4.61,US,1675625150
62,verkhovazhye,60.7472,42.0465,-0.47,100,100,2.04,RU,1675625151
63,guerrero negro,27.9769,-114.0611,64.69,60,0,14.56,MX,1675625151
64,longyearbyen,78.2186,15.6401,26.44,74,40,35.68,SJ,1675625152
65,ushuaia,-54.8,-68.3,49.62,81,40,35.68,AR,1675625120
66,souillac,-20.5167,57.5167,79.18,83,40,9.22,MU,1675625152
67,hilo,19.7297,-155.09,77.29,87,75,5.75,US,1675625153
68,college,64.8569,-147.8028,-0.42,77,0,8.05,US,1675625153
69,mar del plata,-38.0023,-57.5575,90.82,40,0,12.66,AR,1675625154
70,ribeira grande,38.5167,-28.7,61.77,88,75,15.01,PT,1675625154
71,nome,64.5011,-165.4064,15.87,79,75,6.91,US,1675625154
72,port elizabeth,-33.918,25.5701,77.09,92,20,18.41,ZA,1675625155
73,east london,-33.0153,27.9116,77.49,83,7,11.25,ZA,1675625131
74,maniitsoq,65.4167,-52.9,2.53,88,100,13.18,GL,1675625155
75,tasiilaq,65.6145,-37.6368,24.96,87,100,5.03,GL,1675625156
76,wattegama,6.7989,81.4808,72.46,88,100,5.19,LK,1675625156
77,georgetown,5.4112,100.3354,76.95,99,20,1.14,MY,1675625006
78,san luis,-33.295,-66.3356,90.93,20,2,12.06,AR,1675624911
79,barrow,71.2906,-156.7887,-16.58,69,100,6.91,US,1675625157
80,ahipara,-35.1667,173.1667,63.95,93,100,7.47,NZ,1675625076
81,rudbar,30.15,62.6,59.65,37,0,5.7,AF,1675625157
82,ashta,23.0167,76.7167,65.44,29,0,1.95,IN,1675625158
83,bredasdorp,-34.5322,20.0403,70.92,76,100,7.27,ZA,1675625159
84,kahului,20.8947,-156.47,77.85,79,20,20.71,US,1675625074
85,sola,-13.8833,167.55,82.53,75,100,21.39,VU,1675625159
86,mahibadhoo,3.7833,72.9667,80.96,75,100,6.26,MV,1675624880
87,hasaki,35.7333,140.8333,32.4,80,98,9.33,JP,1675625160
88,ullapool,57.8987,-5.1604,41.5,74,100,8.99,GB,1675625160
89,quatre cocos,-20.2078,57.7625,80.1,82,30,10.54,MU,1675624902
90,high level,58.5169,-117.136,8.71,85,100,8.05,CA,1675625161
91,puerto escondido,15.85,-97.0667,85.8,52,0,10.22,MX,1675624879
92,albany,42.6001,-73.9662,42.73,46,100,1.99,US,1675625076
93,ghanzi,-21.5667,21.7833,74.91,65,92,6.31,BW,1675625162
94,jalu,29.0331,21.5482,56.93,66,56,15.84,LY,1675625162
95,batagay-alyta,67.8006,130.4114,-25.67,99,100,1.34,RU,1675625163
96,kihei,20.785,-156.4656,77.85,78,20,20.71,US,1675625009
97,karratha,-20.7377,116.8463,87.4,52,11,10.36,AU,1675625163
98,uray,60.1247,64.7758,1.98,98,100,0.47,RU,1675625164
99,kavieng,-2.5744,150.7967,81.32,74,100,2.66,PG,1675625164
100,comodoro rivadavia,-45.8667,-67.5,75.06,23,0,12.66,AR,1675625165
101,kropotkin,45.4375,40.5756,35.17,75,100,11.21,RU,1675625166
102,yulara,-25.2406,130.9889,68.72,23,0,8.95,AU,1675625166
103,lindi,-10.0,39.7167,77.47,87,100,2.8,TZ,1675625167
104,tiznit,29.5833,-9.5,54.36,43,85,3.87,MA,1675625167
105,ancud,-41.8697,-73.8203,64.58,73,23,11.34,CL,1675625168
106,victor harbor,-35.5667,138.6167,57.69,87,0,7.09,AU,1675625168
107,nyurba,63.2842,118.3319,-54.58,100,65,3.6,RU,1675625169
108,katherine,-14.4667,132.2667,70.12,78,75,5.75,AU,1675625169
109,ottumwa,41.02,-92.4113,47.53,60,0,14.97,US,1675625170
110,khasan,42.4308,130.6434,21.9,81,37,8.34,RU,1675625170
111,bambous virieux,-20.3428,57.7575,80.22,83,40,9.22,MU,1675625141
112,ponta do sol,32.6667,-17.1,62.13,49,70,4.41,PT,1675625171
113,meulaboh,4.1363,96.1285,74.01,89,100,4.0,ID,1675625171
114,igarka,67.4667,86.5833,0.97,97,100,5.08,RU,1675625172
115,tallahassee,30.4383,-84.2807,71.1,63,0,3.44,US,1675624901
116,port macquarie,-31.4333,152.9167,64.89,81,94,2.82,AU,1675625172
117,kaeo,-35.1,173.7833,67.32,95,70,5.61,NZ,1675625173
118,klaksvik,62.2266,-6.589,47.32,95,100,34.27,FO,1675625173
119,khatanga,71.9667,102.5,-30.96,96,94,5.37,RU,1675625174
120,victoria,22.2855,114.1577,65.32,89,100,5.01,HK,1675625173
121,ashland,40.8167,-82.2665,47.41,64,100,19.64,US,1675625175
122,quepos,9.4236,-84.1652,85.06,54,6,7.31,CR,1675625043
123,taganak,6.0833,118.3,78.94,81,52,6.17,PH,1675625175
124,barth,54.3635,12.7249,32.09,64,100,10.6,DE,1675625176
125,vodnyy,63.5046,53.4095,-8.59,100,100,4.03,RU,1675625176
126,mahebourg,-20.4081,57.7,80.26,83,40,9.22,MU,1675625177
127,rafaela,-31.2503,-61.4867,93.97,16,0,1.01,AR,1675625177
128,odweyne,9.4092,45.064,65.86,43,97,8.95,SO,1675625133
129,launceston,-41.45,147.1667,52.16,89,77,3.44,AU,1675625178
130,mangrol,21.1167,70.1167,69.94,51,0,11.68,IN,1675625179
131,peterhead,57.5058,-1.7981,43.2,69,100,10.38,GB,1675625179
132,labuhan,-6.8844,112.2051,77.56,84,100,9.31,ID,1675625179
133,vila do maio,15.1333,-23.2167,72.39,62,94,17.52,CV,1675625180
134,ler,8.3018,30.1418,84.74,14,7,4.65,SS,1675625180
135,qianjiang,30.4151,112.8859,43.9,80,70,2.95,CN,1675625181
136,san cristobal,7.7669,-72.225,77.18,62,68,6.4,VE,1675625182
137,gat,31.61,34.7642,58.41,100,98,13.2,IL,1675625083
138,port lincoln,-34.7333,135.8667,60.69,84,6,10.71,AU,1675625182
139,esperance,-33.8667,121.9,68.59,66,67,17.36,AU,1675625150
140,sibolga,1.7427,98.7792,75.24,92,100,2.3,ID,1675625183
141,sri aman,1.2376,111.4621,77.05,94,100,0.0,MY,1675625184
142,lagos,6.5833,3.75,81.05,82,100,7.25,NG,1675625092
143,humaita,-7.5061,-63.0208,81.12,79,93,1.9,BR,1675625184
144,mukhtolovo,55.4644,43.1953,5.2,100,99,3.0,RU,1675625185
145,moerai,-22.4333,-151.3333,79.74,77,7,13.91,PF,1675624996
146,carauari,-4.8828,-66.8958,81.52,82,99,2.75,BR,1675625186
147,tan an,10.5333,106.4167,80.62,81,5,6.8,VN,1675625186
148,faya,18.3851,42.4509,57.72,63,98,4.41,SA,1675625187
149,cabinda,-5.55,12.2,80.74,89,75,0.0,AO,1675625187
150,nerchinskiy zavod,51.3088,119.61,-30.84,100,95,2.19,RU,1675625188
151,elk city,35.412,-99.4043,59.68,29,0,9.42,US,1675625188
152,tual,-5.6667,132.75,80.11,83,100,21.09,ID,1675625189
153,daru,-9.0763,143.2092,76.12,93,100,4.41,PG,1675625189
154,abu dhabi,24.4667,54.3667,68.11,81,0,1.14,AE,1675625190
155,hokitika,-42.7167,170.9667,62.67,83,8,18.34,NZ,1675625044
156,jamestown,42.097,-79.2353,44.24,32,100,19.57,US,1675625190
157,naron,43.5167,-8.1528,53.6,77,4,13.47,ES,1675624937
158,saskylakh,71.9167,114.0833,-41.35,100,100,3.87,RU,1675625191
159,portobelo,9.55,-79.65,80.11,79,54,13.82,PA,1675625191
160,pevek,69.7008,170.3133,-38.22,100,76,2.44,RU,1675625070
161,adelaide,-34.9333,138.6,59.32,78,0,5.01,AU,1675625016
162,banda aceh,5.5577,95.3222,77.94,80,100,2.57,ID,1675625192
163,vaini,-21.2,-175.2,77.16,83,75,1.14,TO,1675625100
164,kaitangata,-46.2817,169.8464,59.13,84,100,14.99,NZ,1675625146
165,gizo,-8.103,156.8419,78.33,93,100,20.15,SB,1675625192
166,vestmannaeyjar,63.4427,-20.2734,48.04,91,100,41.03,IS,1675625193
167,talnakh,69.4865,88.3972,4.21,97,100,3.76,RU,1675625160
168,tutoia,-2.7619,-42.2744,81.41,79,100,11.77,BR,1675625193
169,flinders,-34.5833,150.8552,70.18,80,100,1.99,AU,1675625194
170,bengkulu,-3.8004,102.2655,73.69,91,100,5.75,ID,1675625194
171,hildesheim,52.1508,9.9511,38.98,92,92,3.96,DE,1675624963
172,grand gaube,-20.0064,57.6608,80.38,77,29,5.01,MU,1675625195
173,klimovo,52.3805,32.1923,25.61,93,100,10.56,RU,1675625195
174,rajshahi,24.3667,88.6,62.26,50,0,3.22,BD,1675625195
175,ati,13.2154,18.3353,80.15,10,100,9.06,TD,1675625196
176,uwajima,33.2238,132.56,40.14,57,100,5.1,JP,1675625196
177,kodiak,57.79,-152.4072,38.71,100,100,18.41,US,1675625197
178,bismarck,46.8083,-100.7837,35.65,81,0,10.36,US,1675625197
179,hay river,60.8156,-115.7999,1.38,78,100,10.36,CA,1675625197
180,almaznyy,48.0448,40.045,26.96,90,100,10.18,RU,1675625198
181,sorong,-0.8833,131.25,76.69,91,100,4.0,ID,1675625198
182,cayenne,4.9333,-52.3333,75.24,94,75,6.91,GF,1675625199
183,lompoc,34.6391,-120.4579,62.02,75,40,13.8,US,1675625199
184,isangel,-19.55,169.2667,80.28,82,100,5.91,VU,1675625200
185,codrington,-38.2667,141.9667,55.63,86,35,6.06,AU,1675625052
186,khilchipur,24.0333,76.5667,67.03,32,0,4.54,IN,1675625200
187,matara,5.9485,80.5353,75.87,91,99,2.73,LK,1675625201
188,upernavik,72.7868,-56.1549,-14.06,95,100,1.41,GL,1675625201
189,ordynskoye,54.3656,81.8994,-2.97,100,89,3.74,RU,1675625202
190,bethel,41.3712,-73.414,47.03,45,100,3.0,US,1675624985
191,isla mujeres,21.2311,-86.731,82.45,66,1,6.78,MX,1675625202
192,qaanaaq,77.484,-69.3632,-2.72,62,0,9.37,GL,1675625202
193,cape town,-33.9258,18.4232,70.21,82,0,18.41,ZA,1675625203
194,puerto narino,-3.7703,-70.3831,72.77,99,100,0.85,CO,1675625203
195,hithadhoo,-0.6,73.0833,80.96,71,92,10.92,MV,1675625111
196,union,40.6334,-74.2663,49.91,48,75,11.5,US,1675625204
197,oranjestad,12.524,-70.027,84.15,65,20,26.46,AW,1675625204
198,goksun,38.021,36.4973,23.68,97,100,3.42,TR,1675625206
199,villa del rosario,7.8339,-72.4742,82.78,51,40,24.16,CO,1675625132
200,issoire,45.55,3.25,40.26,87,100,15.9,FR,1675625207
201,carutapera,-1.195,-46.02,81.46,79,100,8.66,BR,1675625207
202,chokurdakh,70.6333,147.9167,-40.43,100,87,3.36,RU,1675625208
203,omsukchan,62.5333,155.8,-36.4,99,85,4.72,RU,1675625208
204,airai,-8.9266,125.4092,60.01,94,100,1.43,TL,1675625209
205,mnogovershinnyy,53.9353,139.9242,-13.25,97,94,4.0,RU,1675625209
206,tambura,5.6,27.4667,79.2,15,18,5.21,SS,1675625133
207,atwater,37.3477,-120.6091,57.78,70,20,7.0,US,1675625210
208,geraldton,-28.7667,114.6,73.81,73,100,10.36,AU,1675625101
209,eureka,40.8021,-124.1637,49.93,90,100,5.99,US,1675625211
210,whitefish,48.4111,-114.3376,36.1,92,100,0.0,US,1675625211
211,korla,41.7597,86.1469,28.74,69,8,4.38,CN,1675625211
212,lavrentiya,65.5833,-171.0,-3.57,96,100,9.15,RU,1675625212
213,pisco,-13.7,-76.2167,77.05,78,0,10.36,PE,1675625212
214,garowe,8.4054,48.4845,72.34,54,55,15.14,SO,1675625213
215,arlit,18.7369,7.3853,79.43,10,8,9.75,NE,1675625213
216,mayo,38.8876,-76.5119,56.28,49,0,10.36,US,1675625214
217,cairns,-16.9167,145.7667,80.55,94,100,5.75,AU,1675625214
218,miraflores,19.2167,-98.8083,72.36,12,0,5.73,MX,1675625214
219,redmond,47.674,-122.1215,48.22,90,100,1.99,US,1675624935
220,aksu,41.1231,80.2644,21.88,83,100,5.7,CN,1675625215
221,douentza,14.9951,-2.9517,81.05,12,0,6.02,ML,1675625215
222,chara,56.9064,118.2631,-10.21,80,97,1.95,RU,1675625216
223,grand forks,47.9417,-97.4337,19.33,73,100,9.22,US,1675624948
224,lanigan,51.8501,-105.0344,15.69,90,11,10.83,CA,1675625067
225,wanning,18.8003,110.3967,72.5,88,100,3.89,CN,1675625217
226,neiafu,-18.65,-173.9833,75.88,88,100,17.27,TO,1675625217
227,san lorenzo,-25.3333,-57.5333,92.59,34,75,7.0,PY,1675624945
228,kungurtug,50.5994,97.5228,-5.44,99,99,1.81,RU,1675625218
229,avera,33.194,-82.5271,64.38,61,100,5.01,US,1675625218
230,hobyo,5.3505,48.5268,76.33,80,3,19.04,SO,1675625219
231,naze,28.3667,129.4833,63.52,77,100,11.12,JP,1675625219
232,brae,60.3964,-1.353,44.04,79,100,22.01,GB,1675625220
233,manta,-0.95,-80.7333,83.98,74,75,6.91,EC,1675625220
234,havoysund,70.9963,24.6622,30.43,76,100,38.12,NO,1675625220
235,satun,6.8333,100.0,77.0,87,87,4.92,TH,1675625221
236,gasa,31.5,34.4667,55.89,49,100,16.4,PS,1675625221
237,teeli,51.0333,90.2333,5.88,97,100,1.59,RU,1675625222
238,general roca,-39.0333,-67.5833,103.62,5,35,20.56,AR,1675625222
239,vardo,70.3705,31.1107,19.38,86,0,27.63,NO,1675625223
240,vredendal,-31.6683,18.5012,68.23,76,1,11.27,ZA,1675625223
241,carnarvon,-24.8667,113.6333,76.87,76,1,13.89,AU,1675625224
242,giyon,8.5333,37.9833,62.69,33,80,12.68,ET,1675625224
243,provideniya,64.3833,-173.3,1.42,95,99,10.36,RU,1675625192
244,manokwari,-0.8667,134.0833,76.12,91,100,2.8,ID,1675625225
245,kathmandu,27.7167,85.3167,51.84,76,20,2.3,NP,1675625225
246,acari,-15.4311,-74.6158,81.84,65,76,10.87,PE,1675625226
247,tadine,-21.55,167.8833,78.91,89,87,9.26,NC,1675625213
248,pathardi,19.1667,75.1833,72.72,26,1,3.33,IN,1675625227
249,atambua,-9.1061,124.8925,72.61,87,98,1.5,ID,1675625227
250,langham,52.3668,-106.9679,26.44,88,13,8.12,CA,1675625228
251,lethem,3.3803,-59.7968,78.98,71,100,8.75,GY,1675625229
252,dukat,62.55,155.55,-36.13,100,84,4.83,RU,1675625229
253,pangkalanbuun,-2.6833,111.6167,73.98,97,100,2.55,ID,1675625229
254,ulaangom,49.9811,92.0667,-3.37,99,100,1.43,MN,1675625230
255,visnes,59.3556,5.2242,44.65,87,0,10.36,NO,1675625231
256,walvis bay,-22.9575,14.5053,65.08,82,100,9.24,NA,1675625231
257,constitucion,-35.3333,-72.4167,68.92,71,19,7.65,CL,1675625156
258,deputatskiy,69.3,139.9,-24.86,98,100,3.65,RU,1675625201
259,port blair,11.6667,92.75,80.64,83,40,3.44,IN,1675625232
260,narsaq,60.9167,-46.05,19.62,93,100,9.78,GL,1675625232
261,ixtapa,20.7,-105.2,76.23,69,0,9.22,MX,1675625233
262,lannion,48.75,-3.4167,44.01,87,75,5.75,FR,1675625233
263,kysyl-syr,63.8986,122.7617,-50.71,100,77,3.94,RU,1675625234
264,port-cartier,50.0334,-66.8654,6.75,82,100,8.5,CA,1675625234
265,salalah,17.0151,54.0924,73.49,73,0,4.61,OM,1675625127
266,obo,5.3998,26.4869,79.41,16,14,5.82,CF,1675625235
267,dikson,73.5069,80.5464,-3.98,97,100,3.24,RU,1675625236
268,krasnoselkup,65.7,82.4667,1.33,98,91,5.86,RU,1675625236
269,puri,19.8,85.85,66.72,67,4,7.2,IN,1675625236
270,adet,11.2644,37.4888,62.89,20,63,7.2,ET,1675625237
271,praia da vitoria,38.7333,-27.0667,62.76,82,20,14.63,PT,1675625062
272,moranbah,-22.0016,148.0466,74.44,96,98,9.24,AU,1675625237
273,turkistan,43.0,68.0,34.72,71,14,7.85,KZ,1675625238
274,araouane,18.9048,-3.5265,69.93,16,95,8.7,ML,1675625238
275,lebanon,36.2081,-86.2911,60.78,51,100,16.11,US,1675625031
276,boyolangu,-8.1181,111.8935,76.23,82,100,1.19,ID,1675625239
277,nuevitas,21.5453,-77.2644,83.7,58,0,13.42,CU,1675625239
278,tura,25.5198,90.2201,58.98,45,0,2.57,IN,1675625240
279,cheremukhovo,60.3484,59.9851,12.88,98,100,1.28,RU,1675625240
280,agadez,19.75,10.25,69.48,16,0,11.72,NE,1675625241
281,cidreira,-30.1811,-50.2056,82.13,53,1,15.03,BR,1675625241
282,dongsheng,39.8161,109.9776,23.5,38,100,5.91,CN,1675625242
283,colac,-38.3333,143.5833,54.84,91,64,3.62,AU,1675625242
284,moron,-34.6534,-58.6198,89.49,41,0,4.68,AR,1675625243
285,along,28.1667,94.7667,53.13,64,0,1.63,IN,1675625243
286,coulommiers,48.8145,3.085,44.22,77,88,13.76,FR,1675625215
287,severo-kurilsk,50.6789,156.125,24.51,80,99,7.49,RU,1675625244
288,mahajanga,-15.7167,46.3167,80.62,94,40,0.0,MG,1675625244
289,nouadhibou,20.931,-17.0347,71.58,33,100,13.8,MR,1675625245
290,wamba,8.9333,8.6,82.85,20,100,3.53,NG,1675625196
291,vao,-22.6667,167.4833,79.05,87,98,18.19,NC,1675624984
292,mabaruma,8.2,-59.7833,78.28,82,100,7.36,GY,1675625245
293,sinnamary,5.3833,-52.95,77.97,87,100,14.61,GF,1675625246
294,anloga,5.7947,0.8973,81.79,84,100,16.15,GH,1675625246
295,ko samui,9.5357,99.9357,79.83,76,0,8.99,TH,1675625247
296,lucea,18.451,-78.1736,84.06,69,1,8.97,JM,1675625247
297,cabo san lucas,22.8909,-109.9124,83.61,51,0,3.44,MX,1675625220
298,oranjemund,-28.55,16.4333,63.34,95,99,12.5,NA,1675625248
299,cherskiy,68.75,161.3,-41.84,100,100,4.79,RU,1675625248
300,shache,38.4167,77.2406,25.97,78,100,5.35,CN,1675625249
301,caluquembe,-13.7833,14.6833,60.28,79,100,5.12,AO,1675625249
302,sept-iles,50.2001,-66.3821,7.05,84,100,4.61,CA,1675625214
303,ambulu,-8.345,113.6058,75.97,87,100,3.69,ID,1675625250
304,satrikh,26.8667,81.2,57.27,53,0,5.7,IN,1675625250
305,mana,5.6592,-53.7767,77.41,88,100,12.8,GF,1675625251
306,galveston,29.3669,-94.9669,73.51,68,0,12.66,US,1675625193
307,porto torres,40.835,8.3972,51.98,87,24,6.8,IT,1675625252
308,solnechnyy,50.7214,136.6319,-11.34,96,46,3.06,RU,1675625204
309,elban,50.1018,136.5094,-12.28,99,99,1.72,RU,1675625252
310,caravelas,-17.7125,-39.2481,83.89,66,0,12.71,BR,1675625068
311,lagoa,39.05,-27.9833,59.58,84,24,17.34,PT,1675625253
312,havre-saint-pierre,50.2334,-63.5986,8.6,78,100,6.91,CA,1675625253
313,tromso,69.6496,18.957,37.42,70,75,11.5,NO,1675625254
314,beringovskiy,63.05,179.3167,-19.34,93,100,12.28,RU,1675625254
315,brownsville,25.9018,-97.4975,77.99,56,75,9.22,US,1675625113
316,marawi,7.9986,124.2928,67.32,90,100,2.57,PH,1675625255
317,nakambala,-15.8324,27.7799,67.55,95,100,3.36,ZM,1675625255
318,fortuna,40.5982,-124.1573,49.66,95,75,8.05,US,1675625256
319,puerto montt,-41.4698,-72.9447,70.63,73,75,13.8,CL,1675625010
320,ibanda,-2.7974,32.4746,66.4,69,29,4.23,TZ,1675625256
321,lubao,14.9167,120.55,77.07,85,26,5.26,PH,1675625257
322,vilhena,-12.7406,-60.1458,79.02,73,75,3.44,BR,1675625257
323,rio esteban,15.8333,-86.3,84.25,57,11,7.45,HN,1675625257
324,micheweni,-4.9667,39.8333,80.24,76,7,10.8,TZ,1675625258
325,umm lajj,25.0213,37.2685,67.98,51,6,6.02,SA,1675625258
326,tiksi,71.6872,128.8694,-29.42,100,100,3.29,RU,1675625136
327,hofn,64.2539,-15.2082,45.39,98,100,23.38,IS,1675625259
328,katsuura,35.1333,140.3,47.5,82,0,6.46,JP,1675625259
329,simbahan,6.3032,120.5836,80.24,79,97,6.85,PH,1675625260
330,cabras,39.93,8.5314,52.32,86,70,6.49,IT,1675625260
331,sumbe,-11.2061,13.8437,78.64,77,98,10.07,AO,1675625261
332,emerald,-23.5333,148.1667,76.33,91,99,10.94,AU,1675625261
333,aklavik,68.2191,-135.0107,-45.4,66,20,3.44,CA,1675625087
334,hualmay,-11.0964,-77.6139,77.45,68,63,8.23,PE,1675625246
335,north bend,43.4065,-124.2243,49.91,81,100,6.91,US,1675625262
336,soyaniquilpan,19.9833,-99.5,68.27,15,0,10.18,MX,1675625262
337,parabel,58.6978,81.4825,-2.52,100,100,3.91,RU,1675625262
338,panaba,21.2833,-88.2667,75.63,78,99,14.23,MX,1675625263
339,pontianak,-0.0333,109.3333,76.98,94,75,1.14,ID,1675625263
340,laurel,39.0993,-76.8483,55.8,35,0,8.05,US,1675625175
341,elliot,-31.3333,27.85,61.54,80,7,3.89,ZA,1675625264
342,dunedin,-45.8742,170.5036,69.8,42,44,8.99,NZ,1675625264
343,lorengau,-2.0226,147.2712,81.09,79,100,4.9,PG,1675625265
344,lincoln,40.8,-96.667,55.27,43,0,6.91,US,1675625238
345,guapore,-28.8456,-51.8903,78.71,18,2,5.64,BR,1675625265
346,vostok,46.4856,135.8833,-7.13,100,98,3.87,RU,1675625266
347,dwarka,22.2394,68.9678,70.23,80,4,8.12,IN,1675625266
348,bell ville,-32.6259,-62.6887,91.67,21,0,9.55,AR,1675625266
349,san ramon,37.7799,-121.978,55.6,81,75,13.8,US,1675625267
350,saint george,37.1041,-113.5841,60.44,36,0,3.44,US,1675625091
351,uni,57.7535,51.4923,4.98,100,99,4.47,RU,1675625267
352,buala,-8.145,159.5921,77.41,94,100,13.22,SB,1675625268
353,zyryanovsk,49.7386,84.2719,17.69,96,100,2.35,KZ,1675625268
354,nanortalik,60.1432,-45.2371,23.13,91,100,11.79,GL,1675625269
355,kyzyl-suu,42.3414,78.0056,26.29,62,100,6.71,KG,1675625269
356,matinha,-3.1006,-45.0336,84.45,69,46,5.19,BR,1675625037
357,laje,-10.1833,-40.9667,93.85,22,20,11.34,BR,1675625270
358,namatanai,-3.6667,152.4333,78.12,82,33,3.04,PG,1675625144
359,saryozek,44.3583,77.9753,18.66,91,100,2.42,KZ,1675625270
360,ouricuri,-7.8825,-40.0817,94.84,24,91,8.28,BR,1675625271
361,paamiut,61.994,-49.6678,16.81,86,100,20.54,GL,1675625201
362,onda,39.9667,-0.25,49.89,80,0,2.73,ES,1675625271
363,maralal,1.0968,36.698,61.74,51,63,5.77,KE,1675625272
364,chuy,-33.6971,-53.4616,77.25,52,0,11.12,UY,1675625272
365,anzio,41.4853,12.6179,45.01,79,25,7.11,IT,1675625273
366,cancun,21.1743,-86.8466,82.33,65,75,9.22,MX,1675625183
367,shelburne,44.0787,-80.2041,36.9,79,100,15.73,CA,1675625183
368,sur,22.5667,59.5289,71.19,73,1,6.53,OM,1675625273
369,saldanha,-33.0117,17.9442,66.25,87,7,19.6,ZA,1675625139
370,synya,65.3718,58.0387,4.01,98,93,4.36,RU,1675625274
371,vila velha,-20.3297,-40.2925,85.95,77,20,19.57,BR,1675625124
372,bastia,42.6667,9.3333,52.3,65,100,3.44,FR,1675625275
373,florence,43.7667,11.25,43.52,58,0,9.22,IT,1675625275
374,kenai,60.5544,-151.2583,25.14,90,100,21.85,US,1675625275
375,barrhead,55.7992,-4.3929,41.85,81,100,4.61,GB,1675625276
376,mananjary,-21.2167,48.3333,74.43,90,100,4.54,MG,1675625276
377,sadovoye,47.7764,44.5089,26.11,94,100,7.43,RU,1675625276
378,stornoway,58.2093,-6.3865,46.92,89,100,31.07,GB,1675625277
379,whitehorse,60.7161,-135.0538,4.8,85,40,1.01,CA,1675625278
380,torbay,47.6666,-52.7314,26.38,71,40,27.63,CA,1675625278
381,sorkjosen,69.8,20.9333,37.4,75,75,8.05,NO,1675625278
382,carballo,43.213,-8.691,51.22,74,0,6.4,ES,1675625279
383,minab,27.1467,57.0801,62.92,88,0,0.0,IR,1675625279
384,padang,-0.9492,100.3543,71.65,78,100,2.51,ID,1675625280
385,nosy varika,-20.5833,48.5333,74.57,90,100,4.41,MG,1675625280
386,porto santo,33.072,-16.3415,61.18,67,40,13.8,PT,1675625281
387,ampanihy,-24.7,44.75,72.19,94,100,4.25,MG,1675625281
388,gigmoto,13.7796,124.39,77.41,88,90,9.66,PH,1675625281
389,evanston,42.0411,-87.6901,42.8,64,20,10.36,US,1675625188
390,krasnyy yar,46.5331,48.3456,26.53,95,36,6.44,RU,1675625282
391,kafanchan,9.5833,8.3,79.14,17,100,2.24,NG,1675625282
392,amapa,1.0,-52.0,78.06,95,100,3.87,BR,1675625283
393,thompson,55.7435,-97.8558,3.36,78,100,4.61,CA,1675625283
394,maceio,-9.6658,-35.7353,85.44,70,75,11.5,BR,1675625045
395,mount gambier,-37.8333,140.7667,51.93,93,15,3.74,AU,1675625284
396,kondrovo,54.8064,35.9278,25.29,93,100,6.91,RU,1675625284
397,darhan,49.4867,105.9228,-8.39,99,26,1.92,MN,1675625208
398,maragogi,-9.0122,-35.2225,82.2,73,16,9.66,BR,1675625285
399,okhotsk,59.3833,143.3,-15.66,81,96,10.96,RU,1675625259
400,tay ninh,11.3,106.1,75.24,73,5,4.97,VN,1675625285
401,mayor pablo lagerenza,-19.9309,-60.7718,96.75,24,93,3.13,PY,1675625286
402,mao,39.8885,4.2658,52.36,76,20,17.27,ES,1675625286
403,sultanpur,26.2667,82.0667,57.83,55,0,5.7,IN,1675625287
404,arroyo,41.6096,-4.7969,42.12,75,0,19.57,ES,1675625287
405,la palma,33.8464,-118.0467,65.05,71,75,10.36,US,1675625098
406,rio gallegos,-51.6226,-69.2181,62.65,29,40,39.12,AR,1675625288
407,carahue,-38.7,-73.1667,76.44,48,1,9.95,CL,1675625288
408,irbil,36.1926,44.0106,51.62,66,75,14.97,IQ,1675625288
409,kavaratti,10.5669,72.642,80.71,75,11,7.07,IN,1675625289
410,bocas del toro,9.3333,-82.25,79.65,70,48,10.56,PA,1675625289
411,poronaysk,49.2167,143.1167,-10.25,97,82,3.06,RU,1675625290
412,mongo,12.1844,18.693,82.0,10,58,7.78,TD,1675625290
413,qatana,33.4354,36.0815,41.43,83,35,16.8,SY,1675625291
414,alofi,-19.0595,-169.9187,76.89,94,40,4.61,NU,1675625291
415,manado,1.487,124.8455,75.97,100,40,1.14,ID,1675625291
416,teguldet,57.3064,88.1667,-10.97,100,100,1.45,RU,1675625292
417,kralendijk,12.15,-68.2667,84.18,65,40,25.32,BQ,1675625292
418,mirabad,30.4362,61.8383,57.6,29,0,10.27,AF,1675625293
419,nelson bay,-32.7167,152.15,73.99,92,0,3.0,AU,1675625293
420,umm kaddadah,13.6017,26.6876,72.77,13,19,11.36,SD,1675625144
421,te anau,-45.4167,167.7167,56.75,90,98,7.11,NZ,1675625005
422,hidalgo,20.5,-99.0,68.47,23,0,10.8,MX,1675625294
423,ambon,-3.6954,128.1814,78.87,82,100,12.24,ID,1675625294
424,singaraja,-8.112,115.0882,79.23,80,100,7.14,ID,1675625295
425,okato,-39.2,173.8833,65.91,1,13,7.02,NZ,1675625285
426,makaryev,57.8797,43.8069,6.62,100,94,2.39,RU,1675625295
427,puerto princesa,9.7392,118.7353,77.41,88,96,5.23,PH,1675625296
428,xining,36.6167,101.7667,24.1,53,0,0.76,CN,1675625296
429,balykshi,47.0667,51.8667,15.8,92,100,2.24,KZ,1675625297
430,bulolo,-7.2,146.65,69.84,94,100,2.13,PG,1675625297
431,marzuq,14.4,46.4667,64.85,77,100,6.2,YE,1675625297
432,roebourne,-20.7833,117.1333,87.94,51,11,10.25,AU,1675625298
433,luderitz,-26.6481,15.1594,66.27,76,96,19.19,NA,1675625298
434,gamba,-2.65,10.0,78.01,83,22,5.32,GA,1675625299
435,asau,46.4333,26.4,24.28,93,100,7.7,RO,1675625299
436,abha,18.2164,42.5053,57.45,44,0,5.75,SA,1675625300
437,selty,57.3132,52.1345,3.79,100,100,2.95,RU,1675625300
438,vasilyevskiy mokh,57.0132,35.919,20.37,88,100,6.42,RU,1675625301
439,najran,17.4924,44.1277,66.85,29,100,2.95,SA,1675625301
440,san nicolas,18.1725,120.5953,73.29,81,62,4.7,PH,1675625302
441,dezhou,37.4486,116.2925,38.55,56,2,3.56,CN,1675625302
442,cranbrook,49.4999,-115.7688,33.64,86,75,0.0,CA,1675625302
443,chabahar,25.2919,60.643,71.22,76,6,12.62,IR,1675625303
444,nuuk,64.1835,-51.7216,12.81,85,75,8.05,GL,1675625303
445,murray bridge,-35.1167,139.2667,57.34,87,0,5.19,AU,1675625304
446,bihoro,43.8228,144.1044,16.68,90,41,4.03,JP,1675625304
447,rapid city,44.0805,-103.231,52.32,45,40,19.57,US,1675625181
448,huarmey,-10.0681,-78.1522,77.54,70,40,9.33,PE,1675625305
449,leningradskiy,69.3833,178.4167,-23.85,98,100,4.52,RU,1675625305
450,fereydun kenar,36.6864,52.5225,46.62,87,0,0.0,IR,1675625306
451,trelew,-43.249,-65.3051,92.61,17,1,17.9,AR,1675625242
452,bundaberg,-24.85,152.35,75.22,98,84,1.01,AU,1675625288
453,saint-pierre,-21.3393,55.4781,80.28,78,0,3.44,RE,1675625306
454,borborema,-21.6197,-49.0736,80.35,73,100,7.74,BR,1675625307
455,talgar,43.3027,77.2395,32.16,69,75,6.71,KZ,1675625307
456,henties bay,-22.116,14.2845,64.9,85,100,5.82,NA,1675625282
457,arica,-18.475,-70.3042,83.75,69,0,9.22,CL,1675625134
458,petropavlovsk-kamchatskiy,53.0452,158.6483,16.39,93,100,2.24,RU,1675625308
459,bara,10.3744,10.7288,82.56,14,78,8.34,NG,1675625308
460,port pirie,-33.1833,138.0167,66.47,50,8,5.46,AU,1675625309
461,sibu,2.3,111.8167,73.71,100,40,3.44,MY,1675625309
462,venado tuerto,-33.7456,-61.9688,93.79,16,0,8.61,AR,1675625310
463,meshcherino,55.1957,38.36,28.85,97,93,5.5,RU,1675625310
464,manjacaze,-24.7117,33.8828,72.75,86,0,5.21,MZ,1675625311
465,krasnyy chikoy,50.3643,108.7512,-8.41,100,81,1.03,RU,1675625311
466,fairbanks,64.8378,-147.7164,-0.4,78,0,8.05,US,1675625287
467,palmer,42.1584,-72.3287,48.18,37,75,10.36,US,1675625208
468,kudahuvadhoo,2.6708,72.8944,79.74,74,52,1.54,MV,1675625312
469,waiuku,-37.25,174.75,65.32,95,100,5.21,NZ,1675625312
470,alekseyevka,50.6309,38.6903,23.09,93,100,7.65,RU,1675625313
471,sovetskiy,61.3614,63.5842,5.68,98,100,2.26,RU,1675625313
472,maua,-23.6678,-46.4614,82.69,55,100,10.85,BR,1675625313
473,kharan,28.5833,65.4167,61.97,36,0,13.35,PK,1675625314
474,camacha,33.0833,-16.3333,58.42,67,40,13.8,PT,1675625314
475,bubaque,11.2833,-15.8333,77.61,71,34,10.22,GW,1675625314
476,asgabat,37.95,58.3833,39.06,87,100,2.3,TM,1675625315
477,sao joao da barra,-21.6403,-41.0511,91.49,81,18,13.94,BR,1675625195
478,overyata,58.0868,55.8709,8.73,99,100,2.44,RU,1675625315
479,batemans bay,-35.7167,150.1833,61.43,82,79,2.82,AU,1675625316
480,mount isa,-20.7333,139.5,76.77,100,75,4.61,AU,1675625316
481,itanhaem,-24.1831,-46.7889,83.08,71,99,2.62,BR,1675625317
482,richards bay,-28.783,32.0377,73.15,88,2,3.24,ZA,1675625082
483,antofagasta,-23.65,-70.4,76.28,70,2,8.68,CL,1675625317
484,istisu,40.9457,48.0738,23.67,66,82,4.76,AZ,1675625318
485,bereda,43.2686,-7.5406,41.14,99,8,6.96,ES,1675625318
486,balogo,10.8868,124.7105,76.32,92,92,4.97,PH,1675625319
487,sao joao do piaui,-8.3581,-42.2467,90.75,33,99,0.22,BR,1675625319
488,saint-paul,-21.0096,55.2707,80.71,82,100,3.31,RE,1675625319
489,touros,-5.1989,-35.4608,83.28,68,100,12.95,BR,1675625251
490,qasigiannguit,68.8193,-51.1922,3.45,98,100,10.6,GL,1675625320
491,pringsewu,-5.3582,104.9744,74.44,75,99,1.79,ID,1675625320
492,necochea,-38.5473,-58.7368,89.01,31,4,5.1,AR,1675625322
493,mukhen,48.1,136.1,-0.22,97,97,5.41,RU,1675625322
494,kemin,42.7846,75.6892,27.3,70,100,4.43,KG,1675625323
495,atar,20.5169,-13.0499,70.27,18,68,8.93,MR,1675625323
496,svetlogorsk,52.6333,29.7333,24.12,91,100,8.68,BY,1675625324
497,santa isabel do rio negro,-0.4139,-65.0192,79.2,94,100,3.74,BR,1675625324
498,east angus,45.4834,-71.6658,30.83,51,100,11.5,CA,1675625325
499,viedma,-40.8135,-62.9967,96.85,12,10,17.0,AR,1675625325
500,zeya,53.75,127.2667,-20.34,95,37,2.73,RU,1675625326
501,jaisalmer,26.9147,70.9181,69.51,37,0,12.57,IN,1675625326
502,rosario do sul,-30.2583,-54.9142,90.88,26,18,6.73,BR,1675625327
503,sapa,5.1544,120.3241,78.98,80,82,2.44,PH,1675625327
504,horn,51.8715,8.9451,37.33,94,100,5.5,DE,1675625327
505,namibe,-15.1961,12.1522,72.34,77,36,6.6,AO,1675625328
506,pyapon,16.2833,95.6833,72.48,56,6,7.07,MM,1675625328
507,taoudenni,22.6783,-3.9836,67.6,18,98,9.98,ML,1675625329
508,palimbang,6.2106,124.1894,76.87,82,100,1.9,PH,1675625329
509,bojnice,48.7851,18.5864,23.29,94,13,4.59,SK,1675625329
510,rantepao,-2.9701,119.8978,65.89,95,100,3.49,ID,1675625330
511,abu samrah,35.3029,37.1841,42.73,94,100,6.11,SY,1675625330
512,santiago del estero,-27.7951,-64.2615,93.83,28,100,8.52,AR,1675625219
513,lata,40.1629,-8.3327,48.6,67,0,4.9,PT,1675625331
514,segezha,63.7415,34.3222,12.4,95,100,6.64,RU,1675625331
515,nabire,-3.3667,135.4833,75.38,94,100,1.79,ID,1675625332
516,sao filipe,14.8961,-24.4956,71.4,61,100,12.75,CV,1675625332
517,port-gentil,-0.7193,8.7815,78.76,83,20,3.44,GA,1675625332
518,merritt island,28.5392,-80.672,70.21,85,75,8.05,US,1675625173
519,margate,51.3813,1.3862,42.69,83,84,7.0,GB,1675625333
520,toamasina,-18.1667,49.3833,77.0,94,75,9.22,MG,1675625333
521,moorhead,46.8739,-96.7676,20.98,78,100,3.0,US,1675625334
522,linxia,35.6003,103.2064,25.88,43,19,2.1,CN,1675625334
523,pag,44.445,15.0575,36.18,53,100,12.5,HR,1675625335
524,port hedland,-20.3167,118.5667,80.65,89,6,2.3,AU,1675625274
525,lukovetskiy,64.2956,41.9211,1.78,97,25,5.39,RU,1675625335
526,sault sainte marie,46.5168,-84.3333,28.96,79,100,9.22,CA,1675625077
527,bemban,2.2684,102.3746,76.8,88,20,0.0,MY,1675625336
528,oruro,-17.9833,-67.15,47.62,68,100,2.89,BO,1675625336
529,dingle,10.9995,122.6711,73.78,93,100,7.78,PH,1675625070
530,mizan teferi,6.9833,35.5833,67.93,48,71,1.54,ET,1675625337
531,hambantota,6.1241,81.1185,76.8,84,100,8.97,LK,1675625337
532,iracoubo,5.4802,-53.2011,76.98,88,99,14.27,GF,1675625338
