City_ID,City,Lat,Lng,Max Temp,Humidity,Cloudiness,Wind Speed,Country,Date
0,progreso,21.2833,-89.6667,89.11,55,1,12.39,MX,1675804301
1,narsaq,60.9167,-46.05,-3.78,70,0,6.53,GL,1675803832
2,rikitea,-23.1203,-134.9692,78.93,74,93,12.28,PF,1675803788
3,punta arenas,-53.15,-70.9167,62.62,51,75,18.41,CL,1675803751
4,ribeira grande,38.5167,-28.7,55.78,66,20,11.01,PT,1675803795
5,jamestown,42.097,-79.2353,46.71,68,100,10.36,US,1675803604
6,cherskiy,68.75,161.3,-32.35,99,100,5.37,RU,1675803895
7,ushuaia,-54.8,-68.3,56.86,47,40,17.27,AR,1675803792
8,mirnyy,62.5353,113.9611,-28.71,98,100,2.13,RU,1675804302
9,mount gambier,-37.8333,140.7667,54.3,85,5,7.2,AU,1675803753
10,hinton,53.4001,-117.5857,34.03,91,100,3.38,CA,1675804303
11,ilulissat,69.2167,-51.1,-9.38,77,100,8.05,GL,1675804008
12,avarua,-21.2078,-159.775,82.45,83,89,12.66,CK,1675803839
13,belyy yar,53.6039,91.3903,4.89,92,100,0.0,RU,1675804304
14,houma,29.5958,-90.7195,79.0,66,40,11.5,US,1675804304
15,atuona,-9.8,-139.0333,78.42,77,10,15.03,PF,1675803604
16,carndonagh,55.25,-7.2667,42.42,92,41,6.15,IE,1675804305
17,saint-ambroise,48.5501,-71.3324,21.58,76,100,12.86,CA,1675804306
18,hilo,19.7297,-155.09,75.27,96,11,1.99,US,1675803625
19,albany,42.6001,-73.9662,39.67,45,100,5.01,US,1675803602
20,zhigansk,66.7697,123.3711,-52.24,100,94,4.34,RU,1675804191
21,college,64.8569,-147.8028,11.21,77,75,0.0,US,1675804183
22,bethel,41.3712,-73.414,39.36,57,100,1.01,US,1675803695
23,atar,20.5169,-13.0499,65.01,20,91,10.54,MR,1675804307
24,coxim,-18.5067,-54.76,73.24,89,100,4.72,BR,1675804308
25,khatanga,71.9667,102.5,-47.13,100,79,2.42,RU,1675803782
26,busselton,-33.65,115.3333,61.16,90,19,9.35,AU,1675803783
27,port-gentil,-0.7193,8.7815,80.56,94,20,2.3,GA,1675804309
28,san matias,-16.3667,-58.4,81.16,81,100,1.95,BO,1675804309
29,dikson,73.5069,80.5464,-13.79,93,100,20.11,RU,1675803848
30,puerto ayora,-0.7393,-90.3518,85.96,90,27,11.99,EC,1675803789
31,bac lieu,9.285,105.7244,75.11,89,40,8.14,VN,1675804310
32,yellowknife,62.456,-114.3525,-1.68,78,40,9.22,CA,1675803782
33,port alfred,-33.5906,26.891,70.18,92,100,1.99,ZA,1675803838
34,tashtyp,52.7939,89.8983,16.88,97,100,1.95,RU,1675804311
35,pokhara,28.2333,83.9833,54.25,66,88,4.99,NP,1675804300
36,honningsvag,70.9821,25.9704,35.35,69,100,25.32,NO,1675804052
37,qaanaaq,77.484,-69.3632,-22.85,64,100,5.12,GL,1675803834
38,nikolskoye,59.7035,30.7861,28.29,89,98,10.0,RU,1675803830
39,loikaw,19.6742,97.2094,53.06,36,3,3.94,MM,1675804312
40,sitka,57.0531,-135.33,37.29,75,75,3.44,US,1675804300
41,mabaruma,8.2,-59.7833,79.0,78,15,6.62,GY,1675804132
42,immokalee,26.4187,-81.4173,82.35,49,100,12.66,US,1675804156
43,chokurdakh,70.6333,147.9167,-36.18,99,99,4.21,RU,1675803883
44,ancud,-41.8697,-73.8203,64.29,76,9,9.46,CL,1675804059
45,mackay,-21.15,149.2,79.68,82,98,19.17,AU,1675804197
46,santa rosa,14.3122,121.1114,78.03,80,100,7.7,PH,1675804313
47,new norfolk,-42.7826,147.0587,55.92,64,9,1.07,AU,1675803779
48,norman wells,65.282,-126.8329,-0.94,94,100,2.51,CA,1675804013
49,kavali,14.9167,79.9833,69.71,83,77,6.67,IN,1675804314
50,mataura,-46.1927,168.8643,49.48,88,86,8.01,NZ,1675803822
51,cao bang,22.6667,106.25,62.38,99,100,2.01,VN,1675804315
52,correntina,-13.3433,-44.6367,79.29,60,77,4.09,BR,1675804315
53,bluff,-46.6,168.3333,49.8,66,73,26.17,NZ,1675803830
54,mar del plata,-38.0023,-57.5575,84.83,84,0,16.11,AR,1675803834
55,vila franca do campo,37.7167,-25.4333,54.01,82,72,13.31,PT,1675804316
56,bagdarin,54.4333,113.6,-12.57,96,5,4.07,RU,1675804316
57,bredasdorp,-34.5322,20.0403,67.89,73,99,9.69,ZA,1675803797
58,kaitangata,-46.2817,169.8464,49.24,87,98,12.24,NZ,1675803863
59,starosubkhangulovo,53.1031,57.4423,-0.15,100,98,2.44,RU,1675804317
60,goderich,43.7501,-81.7165,37.9,93,100,19.26,CA,1675804076
61,boskovice,49.4875,16.66,24.87,67,19,4.5,CZ,1675804318
62,itarema,-2.9248,-39.9167,79.61,78,100,12.28,BR,1675804318
63,inirida,3.8653,-67.9239,84.4,70,41,2.44,CO,1675804318
64,cape town,-33.9258,18.4232,72.37,74,20,20.71,ZA,1675803586
65,moron,-34.6534,-58.6198,97.93,35,2,7.36,AR,1675804319
66,ilebo,-4.3167,20.5833,73.35,83,97,1.41,CD,1675804319
67,vaini,-21.2,-175.2,78.96,94,75,5.75,TO,1675803785
68,saint george,37.1041,-113.5841,53.44,36,0,5.01,US,1675803601
69,maraa,-1.8333,-65.3667,80.28,91,35,3.6,BR,1675804320
70,okha,53.5739,142.9478,-14.15,96,100,4.99,RU,1675804145
71,belmonte,-15.8631,-38.8828,80.19,74,7,11.9,BR,1675804188
72,ahipara,-35.1667,173.1667,68.61,64,97,6.49,NZ,1675804126
73,hasaki,35.7333,140.8333,46.8,83,100,25.84,JP,1675804322
74,thompson,55.7435,-97.8558,1.56,71,100,4.61,CA,1675803848
75,hermanus,-34.4187,19.2345,68.81,80,82,12.88,ZA,1675803831
76,dindori,22.95,81.0833,57.79,43,0,2.51,IN,1675804326
77,veraval,20.9,70.3667,70.14,76,1,8.3,IN,1675804326
78,nanortalik,60.1432,-45.2371,5.72,69,41,23.91,GL,1675803889
79,kapaa,22.0752,-159.319,80.92,84,75,11.5,US,1675803807
80,burns lake,54.2331,-125.7533,29.8,96,100,0.89,CA,1675804327
81,srednekolymsk,67.45,153.6833,-31.68,99,100,5.37,RU,1675803982
82,kruisfontein,-34.0033,24.7314,68.88,82,99,2.57,ZA,1675803965
83,severnyy,50.677,36.5532,10.44,85,0,8.99,RU,1675804328
84,esperance,-33.8667,121.9,68.58,68,100,10.96,AU,1675803781
85,miyako,39.6367,141.9525,33.94,91,100,9.28,JP,1675804328
86,geraldton,-28.7667,114.6,64.81,94,40,9.22,AU,1675803840
87,bara,10.3744,10.7288,77.5,19,27,11.36,NG,1675804192
88,kodiak,57.79,-152.4072,29.71,55,0,11.5,US,1675803857
89,saskylakh,71.9167,114.0833,-30.75,100,99,1.41,RU,1675803900
90,hambantota,6.1241,81.1185,76.17,85,97,11.86,LK,1675804330
91,gizo,-8.103,156.8419,82.26,78,99,13.65,SB,1675804330
92,upernavik,72.7868,-56.1549,-17.23,96,96,3.09,GL,1675803890
93,coquimbo,-29.9533,-71.3436,65.93,82,75,10.36,CL,1675803948
94,zhirnovsk,50.9845,44.7735,7.79,94,12,9.17,RU,1675804332
95,huarmey,-10.0681,-78.1522,76.95,72,15,9.57,PE,1675804044
96,aswan,24.0934,32.907,53.55,36,61,11.01,EG,1675804058
97,marawi,7.9986,124.2928,63.12,93,100,1.25,PH,1675804333
98,itoman,26.1247,127.6694,66.22,86,40,9.22,JP,1675804333
99,caluquembe,-13.7833,14.6833,57.76,70,46,4.94,AO,1675804334
100,talnakh,69.4865,88.3972,-8.19,98,100,6.58,RU,1675803778
101,hithadhoo,-0.6,73.0833,81.27,69,99,7.99,MV,1675803828
102,mount vernon,40.9126,-73.8371,41.22,67,75,13.8,US,1675804250
103,ucluelet,48.9329,-125.5528,45.99,83,26,17.31,CA,1675804198
104,takhatgarh,25.3333,73.0,60.48,27,0,2.86,IN,1675804336
105,pacific grove,36.6177,-121.9166,61.25,68,0,11.01,US,1675803908
106,meulaboh,4.1363,96.1285,75.18,83,100,2.98,ID,1675804337
107,caborca,30.5838,-111.101,61.56,13,0,13.62,MX,1675804338
108,coahuayana,18.7333,-103.6833,86.41,50,5,8.19,MX,1675804184
109,port lincoln,-34.7333,135.8667,65.16,82,2,12.93,AU,1675803851
110,victoria,22.2855,114.1577,64.94,92,93,8.01,HK,1675803756
111,salinopolis,-0.6136,-47.3561,78.78,85,71,11.63,BR,1675804303
112,saint-philippe,-21.3585,55.7679,78.39,85,92,13.33,RE,1675803879
113,mahebourg,-20.4081,57.7,79.09,83,40,13.8,MU,1675803888
114,rocha,-34.4833,-54.3333,79.86,52,47,14.9,UY,1675804046
115,mudanjiang,44.5833,129.6,-1.08,98,91,3.38,CN,1675804340
116,cacu,-18.5567,-51.1308,75.38,86,97,8.05,BR,1675804233
117,mizan teferi,6.9833,35.5833,68.34,48,58,1.86,ET,1675804341
118,weinan,34.5036,109.5089,42.93,61,100,3.53,CN,1675804342
119,lerdo,25.5333,-103.5333,76.87,16,75,9.22,MX,1675804342
120,najran,17.4924,44.1277,68.85,49,21,6.87,SA,1675804084
121,kutum,14.2,24.6667,59.86,28,15,11.65,SD,1675804038
122,aguimes,27.9054,-15.4461,58.66,63,20,8.01,ES,1675804343
123,waw,7.7029,27.9953,78.71,16,12,5.37,SS,1675804344
124,barreirinha,-2.7933,-57.07,81.34,85,90,1.12,BR,1675804344
125,bengkulu,-3.8004,102.2655,75.25,84,91,6.51,ID,1675804020
126,durham,36.0335,-78.8664,65.8,42,85,3.0,US,1675804072
127,ternate,0.8,127.4,76.77,90,100,9.57,ID,1675804346
128,tuatapere,-46.1333,167.6833,51.31,81,68,13.58,NZ,1675803867
129,nalut,30.3333,10.85,61.47,34,100,15.43,LY,1675804347
130,salvador,13.8333,-88.9167,89.06,25,12,3.53,SV,1675804348
131,fortuna,40.5982,-124.1573,57.92,68,0,3.0,US,1675804112
132,sterling,39.0062,-77.4286,52.56,53,75,14.0,US,1675804320
133,buraydah,26.326,43.975,55.85,38,100,5.75,SA,1675803945
134,hofn,64.2539,-15.2082,33.49,81,100,24.34,IS,1675804003
135,carutapera,-1.195,-46.02,77.63,89,99,8.03,BR,1675803952
136,lebu,-37.6167,-73.65,63.19,73,0,17.81,CL,1675803838
137,borogontsy,62.6683,131.1683,-46.17,100,100,0.67,RU,1675804350
138,dandong,40.1292,124.3947,25.11,49,0,7.63,CN,1675804350
139,acapulco,16.8634,-99.8901,85.82,58,40,8.05,MX,1675804351
140,hobart,-42.8794,147.3294,56.26,71,75,6.91,AU,1675803777
141,carnarvon,-24.8667,113.6333,76.46,69,0,19.37,AU,1675803878
142,zhezkazgan,47.8043,67.7144,1.38,85,75,6.71,KZ,1675804352
143,boddam,57.4667,-1.7833,39.58,88,83,9.69,GB,1675804352
144,buala,-8.145,159.5921,80.38,87,99,9.22,SB,1675804356
145,dong hoi,17.4833,106.6,71.38,97,69,5.35,VN,1675804356
146,muros,42.7762,-9.0603,46.09,66,3,19.86,ES,1675804357
147,tuktoyaktuk,69.4541,-133.0374,-27.4,68,100,3.44,CA,1675803895
148,shache,38.4167,77.2406,30.2,64,0,7.29,CN,1675803964
149,seoul,37.5683,126.9778,27.84,93,0,2.3,KR,1675803575
150,guerrero negro,27.9769,-114.0611,70.3,20,1,3.89,MX,1675803853
151,alta floresta,-9.8756,-56.0861,77.83,91,100,2.06,BR,1675804358
152,whitehorse,60.7161,-135.0538,17.58,93,69,7.85,CA,1675804359
153,airai,-8.9266,125.4092,61.48,93,95,1.1,TL,1675803837
154,pangoa,-12.1167,-73.0,81.91,60,47,5.93,PE,1675804359
155,vardo,70.3705,31.1107,33.78,75,0,35.68,NO,1675803828
156,port elizabeth,-33.918,25.5701,71.1,90,0,5.75,ZA,1675803618
157,provideniya,64.3833,-173.3,-0.29,78,100,8.95,RU,1675803829
158,barrow,71.2906,-156.7887,-7.58,84,100,8.05,US,1675804360
159,ponta do sol,32.6667,-17.1,59.72,70,14,4.56,PT,1675804192
160,wagga wagga,-35.1167,147.3667,70.07,74,0,8.01,AU,1675804361
161,biak,-0.9131,122.8766,76.28,82,100,4.03,ID,1675804361
162,iqaluit,63.7506,-68.5145,-27.31,67,75,10.36,CA,1675803638
163,jamkhandi,16.5167,75.3,72.79,39,100,4.68,IN,1675804362
164,chuy,-33.6971,-53.4616,79.03,59,0,14.23,UY,1675803891
165,leningradskiy,69.3833,178.4167,-25.06,96,100,5.7,RU,1675803916
166,itamaraca,-7.7478,-34.8256,80.65,65,100,9.08,BR,1675804363
167,butaritari,3.0707,172.7902,81.09,80,100,22.95,KI,1675803821
168,raudeberg,61.9875,5.1352,42.96,76,65,25.57,NO,1675804364
169,biloela,-24.4167,150.5,71.26,74,47,11.56,AU,1675804365
170,wanaka,-44.7,169.15,59.11,48,68,8.01,NZ,1675804365
171,salalah,17.0151,54.0924,69.89,43,0,3.44,OM,1675804201
172,clyde river,70.4692,-68.5914,-28.97,68,40,8.05,CA,1675803796
173,ayan,56.45,138.1667,-24.59,81,24,8.59,RU,1675804366
174,hervey bay,-25.2986,152.8535,77.85,62,87,18.1,AU,1675804067
175,svetlogorsk,52.6333,29.7333,12.72,97,33,3.24,BY,1675804367
176,maceio,-9.6658,-35.7353,80.04,73,0,8.05,BR,1675804367
177,georgetown,5.4112,100.3354,74.93,89,91,7.07,MY,1675803775
178,severo-kurilsk,50.6789,156.125,20.64,63,67,11.5,RU,1675803823
179,sept-iles,50.2001,-66.3821,18.05,88,100,10.0,CA,1675804271
180,pecos,31.4229,-103.4932,55.49,38,75,13.8,US,1675804368
181,ust-maya,60.4167,134.5333,-35.32,100,100,1.12,RU,1675804368
182,nhulunbuy,-12.2333,136.7667,79.41,94,100,1.14,AU,1675804199
183,manali,13.1667,80.2667,75.29,73,4,2.33,IN,1675804369
184,katsuura,35.1333,140.3,50.34,83,100,17.98,JP,1675803954
185,fairbanks,64.8378,-147.7164,11.23,82,75,0.0,US,1675803632
186,faanui,-16.4833,-151.75,79.92,76,28,11.32,PF,1675803883
187,turinsk,58.0458,63.696,-14.58,100,100,1.59,RU,1675804370
188,pevek,69.7008,170.3133,-22.23,94,100,3.13,RU,1675803784
189,salym,60.0625,71.4789,-21.93,100,71,3.13,RU,1675804371
190,aripuana,-9.1667,-60.6333,74.03,98,99,1.7,BR,1675804372
191,aklavik,68.2191,-135.0107,-22.0,76,100,4.61,CA,1675803898
192,trstena,49.361,19.6125,5.31,99,89,1.39,SK,1675804372
193,ocos,14.5094,-92.1933,91.58,60,33,11.92,GT,1675804373
194,yenagoa,4.9247,6.2642,79.83,79,28,6.15,NG,1675804373
195,iranshahr,27.2025,60.6848,61.14,33,0,4.61,IR,1675803978
196,tasiilaq,65.6145,-37.6368,-0.24,39,2,24.2,GL,1675803927
197,tucuma,-0.1833,-50.05,76.8,90,97,8.25,BR,1675804374
198,yarada,17.65,83.2667,70.12,100,20,2.3,IN,1675804375
199,porto santo,33.072,-16.3415,59.38,63,75,12.66,PT,1675804209
200,kidal,18.4411,1.4078,80.49,12,100,11.9,ML,1675804375
201,pisco,-13.7,-76.2167,82.45,61,0,17.27,PE,1675804118
202,aksu,41.1231,80.2644,24.35,75,4,6.22,CN,1675804220
203,tomatlan,19.9333,-105.25,84.04,50,71,9.8,MX,1675804376
204,half moon bay,37.4636,-122.4286,63.54,59,0,8.05,US,1675804210
205,xudat,41.631,48.681,34.07,81,95,8.34,AZ,1675804377
206,siloam springs,36.1881,-94.5405,46.85,96,100,6.91,US,1675804114
207,cabo san lucas,22.8909,-109.9124,81.61,61,100,5.99,MX,1675803654
208,amga,60.8953,131.9608,-36.83,100,99,1.03,RU,1675804378
209,vostok,46.4856,135.8833,-1.95,99,100,4.16,RU,1675804379
210,murud,18.3258,72.965,70.39,68,13,3.67,IN,1675804379
211,grindavik,63.8424,-22.4338,23.47,93,75,29.93,IS,1675804191
212,praia da vitoria,38.7333,-27.0667,53.76,75,97,14.41,PT,1675804380
213,huangzhai,38.0751,112.6595,32.41,43,95,5.01,CN,1675804380
214,sibolga,1.7427,98.7792,74.05,75,100,4.07,ID,1675804381
215,ocean city,39.2776,-74.5746,44.62,78,100,7.0,US,1675804319
216,gouyave,12.1646,-61.7296,76.71,80,100,16.28,GD,1675804383
217,letpadan,17.7833,95.75,62.92,40,31,3.04,MM,1675804384
218,sorland,67.667,12.6934,42.66,80,100,37.24,NO,1675803870
219,goma,-1.6792,29.2228,63.34,73,100,1.92,CD,1675804385
220,laguna,38.421,-121.4238,60.17,59,0,1.99,US,1675804386
221,uyo,5.0333,7.9266,80.17,76,10,4.83,NG,1675804387
222,santander,43.4647,-3.8044,43.47,86,20,8.01,ES,1675804387
223,pimentel,-6.8367,-79.9342,82.69,54,20,20.71,PE,1675804388
224,alice town,25.7167,-79.3,72.97,66,1,18.07,BS,1675804389
225,kinsale,51.7075,-8.5306,43.97,93,75,4.61,IE,1675804389
226,isla aguada,18.7833,-91.4667,86.04,67,6,8.68,MX,1675804390
227,vanimo,-2.6741,141.3028,75.96,95,100,4.92,PG,1675804204
228,hammerfest,70.6634,23.6821,32.45,100,100,13.8,NO,1675804390
229,yaan,7.3833,8.5667,86.13,12,20,3.31,NG,1675804365
230,dusetos,55.75,25.85,20.34,96,54,5.21,LT,1675804391
231,paraguacu paulista,-22.4128,-50.5758,74.88,83,88,4.52,BR,1675804127
232,arys,42.4252,68.795,36.3,68,98,7.2,KZ,1675804392
233,east london,-33.0153,27.9116,71.94,86,100,11.41,ZA,1675804057
234,kristiansund,63.1115,7.732,38.05,87,20,5.75,NO,1675804394
235,castro,-24.7911,-50.0119,72.05,76,12,8.05,BR,1675803876
236,comodoro rivadavia,-45.8667,-67.5,69.6,46,3,10.87,AR,1675804395
237,jilib,0.4883,42.7854,74.52,88,31,8.63,SO,1675804396
238,vila,42.0304,-8.1588,35.71,72,14,5.61,PT,1675804396
239,porosozero,62.7191,32.727,29.62,92,100,10.78,RU,1675804397
240,itarantim,-15.6597,-40.0656,79.3,64,48,3.76,BR,1675804397
241,yar-sale,66.8333,70.8333,-6.07,95,98,13.09,RU,1675804072
242,dubbo,-32.25,148.6167,69.93,68,0,13.8,AU,1675804090
243,dacudao,7.2153,125.4714,69.6,84,100,4.12,PH,1675804398
244,rio gallegos,-51.6226,-69.2181,59.77,58,100,10.36,AR,1675804399
245,kibre mengist,5.8833,38.9833,55.6,41,8,2.84,ET,1675804188
246,harper,4.375,-7.7169,79.83,85,78,6.73,LR,1675804179
247,sioux lookout,50.1001,-91.917,19.47,68,75,9.22,CA,1675804294
248,vila velha,-20.3297,-40.2925,80.94,84,20,16.11,BR,1675804169
249,mnogovershinnyy,53.9353,139.9242,-20.7,99,100,1.86,RU,1675804400
250,kismayo,-0.3582,42.5454,76.28,88,49,15.19,SO,1675804401
251,collie,-33.3667,116.15,61.68,83,92,7.18,AU,1675804402
252,ishigaki,24.3448,124.1572,69.1,79,100,16.28,JP,1675804402
253,grand forks,47.9417,-97.4337,35.53,69,20,12.66,US,1675804403
254,port blair,11.6667,92.75,78.84,78,40,2.3,IN,1675804023
255,tiksi,71.6872,128.8694,-24.79,99,100,3.67,RU,1675803835
256,portland,45.5234,-122.6762,50.0,90,75,15.99,US,1675804038
257,caravelas,-17.7125,-39.2481,79.5,79,0,8.84,BR,1675804405
258,kushima,31.4583,131.2333,52.72,92,100,5.97,JP,1675804405
259,sorong,-0.8833,131.25,79.02,84,100,8.21,ID,1675804406
260,helong,42.5397,128.9972,7.97,91,8,5.79,CN,1675804406
261,bulgan,48.8125,103.5347,-3.17,94,11,3.76,MN,1675804407
262,kayan,16.9056,96.5631,73.54,41,34,6.38,MM,1675804408
263,oussouye,12.485,-16.5469,71.71,55,34,12.21,SN,1675804408
264,port macquarie,-31.4333,152.9167,70.9,74,93,2.62,AU,1675804409
265,longyearbyen,78.2186,15.6401,21.04,79,100,40.29,SJ,1675803885
266,bramming,55.4695,8.7001,37.96,94,45,9.22,DK,1675804409
267,tongchuan,35.0806,109.0897,41.47,47,100,6.98,CN,1675804410
268,adrar,20.5022,-10.0711,63.68,19,89,12.24,MR,1675804411
269,el zulia,7.9325,-72.6012,87.31,58,40,11.5,CO,1675804412
270,bako,5.7833,36.5667,68.92,38,3,3.85,ET,1675804413
271,dicabisagan,17.0818,122.4157,73.96,91,33,1.57,PH,1675804414
272,abu samrah,35.3029,37.1841,39.58,74,20,5.03,SY,1675804415
273,havre-saint-pierre,50.2334,-63.5986,7.16,61,0,8.05,CA,1675804416
274,hamilton,39.1834,-84.5333,55.85,79,100,8.05,US,1675804067
275,yertarskiy,56.7902,64.2995,-8.39,100,99,2.8,RU,1675804416
276,tura,25.5198,90.2201,58.62,51,6,2.84,IN,1675804417
277,mehamn,71.0357,27.8492,35.55,75,20,27.63,NO,1675804176
278,siddipet,18.1,78.85,70.09,53,87,4.74,IN,1675804418
279,seidu,9.0167,-10.6,83.35,33,100,2.91,SL,1675804418
280,inhambane,-23.865,35.3833,78.19,87,2,8.75,MZ,1675803826
281,xinyang,32.1228,114.0656,45.55,92,100,8.19,CN,1675804207
282,dhidhdhoo,6.8833,73.1,80.46,72,94,7.94,MV,1675804419
283,puerto carreno,6.189,-67.4859,94.73,34,62,9.89,CO,1675804419
284,husavik,66.0449,-17.3389,22.82,76,38,16.6,IS,1675803884
285,corner brook,48.9667,-57.9484,5.11,95,64,3.2,CA,1675804420
286,zyryanka,65.75,150.85,-36.42,99,85,4.09,RU,1675804124
287,tahe,52.3333,124.7333,-22.63,100,52,2.68,CN,1675804420
288,dudinka,69.4058,86.1778,-11.36,100,95,3.85,RU,1675804115
289,mahibadhoo,3.7833,72.9667,80.53,74,63,10.89,MV,1675804421
290,cairns,-16.9167,145.7667,81.07,88,100,6.91,AU,1675804165
291,skegness,53.1436,0.3363,39.16,86,13,6.49,GB,1675804421
292,bethanien,-26.502,17.1583,76.95,39,14,12.8,NA,1675804422
293,naze,28.3667,129.4833,61.34,71,75,11.01,JP,1675804235
294,gambo,4.6482,22.2633,74.91,21,7,3.13,CF,1675804422
295,goundam,16.4145,-3.6708,82.92,11,100,9.1,ML,1675804423
296,fort myers beach,26.452,-81.9481,82.45,52,40,12.66,US,1675804423
297,dingle,10.9995,122.6711,72.97,95,100,7.05,PH,1675803995
298,ramon castilla,-4.2569,-69.9594,86.16,66,40,3.44,PE,1675804424
299,etchoropo,26.7667,-109.6667,78.42,18,11,20.49,MX,1675804424
300,saldanha,-33.0117,17.9442,66.25,89,49,23.96,ZA,1675803825
301,skibbereen,51.55,-9.2667,46.11,86,89,2.44,IE,1675804425
302,diamantino,-14.4086,-56.4461,82.54,74,44,4.05,BR,1675804425
303,yangambi,0.8102,24.4336,75.79,46,98,2.06,CD,1675804426
304,pyinmana,19.7333,96.2167,59.11,35,0,3.36,MM,1675804426
305,saint anthony,45.0205,-93.218,36.14,62,0,12.66,US,1675804427
306,okhotsk,59.3833,143.3,-13.29,86,98,9.57,RU,1675804427
307,tessalit,20.1986,1.0114,75.15,14,96,2.46,ML,1675804427
308,lata,40.1629,-8.3327,46.08,75,3,3.33,PT,1675804364
309,los llanos de aridane,28.6585,-17.9182,56.95,83,40,20.71,ES,1675804116
310,linares,-35.85,-71.6,98.8,7,0,8.61,CL,1675804428
311,mweka,-4.85,21.5667,70.77,81,100,2.93,CD,1675804429
312,santa isabel do rio negro,-0.4139,-65.0192,84.36,72,83,3.27,BR,1675804429
313,mulege,26.8833,-111.9833,66.04,35,53,18.57,MX,1675804430
314,vuktyl,63.8567,57.3094,6.69,93,100,12.57,RU,1675804430
315,batemans bay,-35.7167,150.1833,66.09,92,98,4.05,AU,1675804431
316,sampit,-2.5333,112.95,73.54,95,100,1.12,ID,1675804086
317,slave lake,55.2834,-114.769,37.38,41,0,17.27,CA,1675804431
318,rantepao,-2.9701,119.8978,64.92,84,100,3.31,ID,1675804432
319,bindura,-17.3019,31.3306,64.2,85,4,1.23,ZW,1675804432
320,tanete,-3.9443,119.7848,75.85,88,95,4.74,ID,1675804433
321,auki,-8.7676,160.7034,79.54,86,94,4.83,SB,1675804433
322,luanda,-8.8368,13.2343,80.6,78,75,5.75,AO,1675804433
323,klaksvik,62.2266,-6.589,47.32,82,100,52.48,FO,1675803850
324,port hardy,50.6996,-127.4199,42.98,87,75,8.05,CA,1675804434
325,jinchang,38.4953,102.1739,27.01,49,100,5.23,CN,1675804435
326,morehead,37.2711,-87.1764,64.99,62,100,3.44,US,1675804435
327,bandarbeyla,9.4942,50.8122,76.17,76,56,13.76,SO,1675804106
328,la ronge,55.1001,-105.2842,37.65,52,20,23.02,CA,1675803881
329,fredericksburg,38.3032,-77.4605,56.44,50,0,9.22,US,1675804375
330,bathsheba,13.2167,-59.5167,79.41,78,40,16.11,BB,1675804008
331,mora,11.0461,14.1401,73.17,23,50,5.08,CM,1675804436
332,el espinal,16.3333,-94.0667,87.82,29,0,9.73,MX,1675804437
333,novoilinsk,51.6829,108.7143,-10.55,100,80,1.88,RU,1675804437
334,taltal,-25.4,-70.4833,73.67,72,64,7.67,CL,1675804438
335,dalaba,10.7,-12.25,69.87,31,9,1.9,GN,1675804438
336,strezhevoy,60.7333,77.5889,-3.8,98,89,6.82,RU,1675804439
337,hauterive,46.0901,3.4459,32.76,82,1,2.55,FR,1675803902
338,khasan,42.4308,130.6434,20.95,66,17,9.53,RU,1675804439
339,yeppoon,-23.1333,150.7333,71.38,73,59,16.15,AU,1675804191
340,beloha,-25.1667,45.05,73.33,84,100,7.05,MG,1675804186
341,inuvik,68.3499,-133.7218,-24.84,68,100,3.44,CA,1675804440
342,fort-shevchenko,44.5086,50.263,38.62,78,100,23.78,KZ,1675804196
343,diego de almagro,-26.3667,-70.05,82.63,29,45,13.09,CL,1675804099
344,panjab,34.388,67.0233,8.35,62,67,1.83,AF,1675804441
345,dalvik,65.9702,-18.5286,22.95,89,99,8.41,IS,1675804013
346,poya,-21.35,165.15,80.33,82,100,3.65,NC,1675804125
347,aksarka,66.5606,67.7975,-1.91,90,100,15.1,RU,1675804442
348,raymond,43.9015,-70.4703,31.41,47,44,7.14,US,1675804442
349,kano,12.0001,8.5167,76.05,16,100,8.79,NG,1675804443
350,harlingen,26.1906,-97.6961,82.36,74,75,26.46,US,1675804444
351,alice springs,-23.7,133.8833,72.95,88,6,0.0,AU,1675804444
352,ostrovnoy,68.0531,39.5131,36.36,92,100,22.15,RU,1675804445
353,lagoa,39.05,-27.9833,56.16,58,100,17.34,PT,1675803910
354,terney,45.0503,136.6092,11.48,81,20,6.13,RU,1675804356
355,san patricio,28.017,-97.5169,78.67,67,98,20.62,US,1675804166
356,torbay,47.6666,-52.7314,23.58,82,75,25.01,CA,1675803859
357,sobolevo,54.4299,31.8996,6.22,98,61,3.91,RU,1675804447
358,lompoc,34.6391,-120.4579,72.7,49,0,5.99,US,1675803609
359,malm,64.0721,11.2172,39.78,97,100,5.61,NO,1675804448
360,nome,64.5011,-165.4064,-6.84,72,100,1.19,US,1675803683
361,shieli,44.1667,66.75,33.04,76,100,7.27,KZ,1675804449
362,arraial do cabo,-22.9661,-42.0278,80.56,94,75,11.5,BR,1675803910
363,cidreira,-30.1811,-50.2056,77.79,69,11,9.91,BR,1675803858
364,doume,4.2333,13.45,72.54,24,9,1.16,CM,1675804450
365,north platte,41.1239,-100.7654,44.11,66,0,10.36,US,1675804451
366,bambous virieux,-20.3428,57.7575,79.05,83,40,13.8,MU,1675803854
367,lamar,33.6668,-95.5836,57.11,96,100,8.05,US,1675804185
368,touros,-5.1989,-35.4608,80.35,68,49,16.84,BR,1675803860
369,ampanihy,-24.7,44.75,75.38,68,100,6.35,MG,1675804452
370,huainan,32.6264,116.9969,42.57,81,97,6.82,CN,1675804453
371,bahia blanca,-38.7196,-62.2724,93.29,38,0,9.82,AR,1675804454
372,kaoma,-14.7833,24.8,64.71,98,100,5.26,ZM,1675804455
373,lasa,46.6166,10.7002,27.01,72,3,2.66,IT,1675804456
374,merauke,-8.4667,140.3333,77.14,91,99,9.78,ID,1675804459
375,codrington,-38.2667,141.9667,55.33,84,91,7.56,AU,1675803867
376,bosobolo,4.1833,19.9,81.37,19,15,1.54,CD,1675804290
377,mareeba,-17.0,145.4333,76.44,89,79,0.63,AU,1675804180
378,cafarnaum,-11.6936,-41.4683,79.18,46,99,8.19,BR,1675804461
379,piacabucu,-10.4056,-36.4344,79.14,70,97,8.7,BR,1675804462
380,sinnamary,5.3833,-52.95,77.68,87,32,12.03,GF,1675803746
381,latung,5.5,120.8833,80.92,72,100,4.18,PH,1675804463
382,sao filipe,14.8961,-24.4956,68.99,64,2,15.82,CV,1675804074
383,flinders,-34.5833,150.8552,70.18,91,99,3.0,AU,1675803947
384,amravati,20.9333,77.75,68.95,33,5,7.02,IN,1675804464
385,anamur,36.0751,32.8369,42.62,47,42,12.37,TR,1675804465
386,kalmunai,7.4167,81.8167,76.57,87,68,7.74,LK,1675803873
387,banda aceh,5.5577,95.3222,77.59,84,98,6.22,ID,1675804122
388,talaya,61.3833,152.75,-41.48,100,100,1.16,RU,1675804322
389,mehran,33.1222,46.1646,53.35,56,50,4.83,IR,1675804467
390,wanning,18.8003,110.3967,71.13,94,19,1.5,CN,1675804467
391,lorengau,-2.0226,147.2712,79.3,88,100,13.67,PG,1675804384
392,virginia beach,36.8529,-75.978,60.04,58,75,10.36,US,1675804075
393,wajid,3.8093,43.2471,81.34,32,9,8.03,SO,1675804468
394,garissa,-0.4536,39.6401,80.33,55,42,10.94,KE,1675804472
395,hovd,48.0056,91.6419,0.23,79,22,2.19,MN,1675804475
396,ponta delgada,37.7333,-25.6667,54.32,87,40,19.57,PT,1675804476
397,gilgit,35.9221,74.3087,23.7,61,4,4.03,PK,1675804476
398,saint-joseph,-21.3667,55.6167,77.38,82,81,13.2,RE,1675804477
399,san cristobal,7.7669,-72.225,78.98,41,32,4.21,VE,1675804004
400,kropotkin,45.4375,40.5756,23.86,93,100,14.99,RU,1675804477
401,nadadores,27.05,-101.6,78.24,32,6,14.67,MX,1675804478
402,kudat,6.8837,116.8477,76.35,85,91,4.03,MY,1675804478
403,digby,44.6169,-65.7655,31.59,64,3,9.51,CA,1675804479
404,ambilobe,-13.2,49.05,72.95,97,100,2.66,MG,1675804161
405,robe,-37.1833,139.75,55.58,85,1,13.71,AU,1675804479
406,mount isa,-20.7333,139.5,78.57,94,40,4.61,AU,1675804195
407,olga,43.7444,135.2892,11.53,79,93,5.08,RU,1675804480
408,sovetskiy,61.3614,63.5842,-17.84,100,98,3.53,RU,1675804480
409,ambovombe,-25.1667,46.0833,73.47,90,100,2.51,MG,1675804108
410,shingu,33.7333,135.9833,43.2,85,2,7.07,JP,1675804063
411,berlevag,70.8578,29.0864,35.6,69,0,29.93,NO,1675804081
412,beringovskiy,63.05,179.3167,-21.08,96,91,7.49,RU,1675803898
413,acarau,-2.8856,-40.12,79.57,79,100,12.64,BR,1675804179
414,panhala,16.8167,74.1167,65.97,42,100,2.75,IN,1675804482
415,cedral,23.8,-100.7333,80.13,9,88,8.03,MX,1675804482
416,sassandra,4.95,-6.0833,78.33,88,59,5.61,CI,1675804483
417,bilibino,68.0546,166.4372,-39.98,100,100,0.34,RU,1675804483
418,indianola,41.3581,-93.5574,45.88,54,0,5.99,US,1675804336
419,ketchikan,55.3422,-131.6461,37.38,87,100,3.44,US,1675804083
420,namibe,-15.1961,12.1522,71.38,74,71,9.62,AO,1675804019
421,salta,-24.7859,-65.4117,83.57,51,95,5.99,AR,1675804484
422,puerto del rosario,28.5004,-13.8627,62.35,63,20,9.22,ES,1675804485
423,puerto pailas,-17.667,-62.7909,86.92,79,77,6.98,BO,1675804485
424,alofi,-19.0595,-169.9187,75.09,94,100,5.75,NU,1675803900
425,norden,53.6,7.2,30.18,73,5,6.6,DE,1675804486
426,mussomeli,37.5778,13.7513,36.86,76,94,6.17,IT,1675804486
427,gayny,60.3071,54.3241,6.96,96,98,6.51,RU,1675804102
428,juneau,58.3019,-134.4197,38.21,91,75,6.91,US,1675804487
429,galway,53.2719,-9.0489,45.95,89,99,5.53,IE,1675804374
430,bud,39.447,-86.1758,57.22,68,100,10.0,US,1675804488
431,kempsey,-31.0833,152.8333,70.95,84,96,1.01,AU,1675804488
432,svetlyy,54.675,20.1347,33.85,88,72,6.51,RU,1675804400
433,bonthe,7.5264,-12.505,76.98,73,100,9.8,SL,1675804488
434,shima,24.4478,117.8111,59.0,84,97,5.08,CN,1675804489
435,omboue,-1.5746,9.2618,78.73,82,76,5.57,GA,1675804489
436,qasigiannguit,68.8193,-51.1922,-9.15,99,100,2.82,GL,1675804490
437,grafton,42.207,-71.6856,38.52,43,0,9.22,US,1675804490
438,beira,-19.8436,34.8389,78.33,88,30,7.27,MZ,1675804490
439,pozo colorado,-23.4923,-58.7972,91.85,43,100,8.37,PY,1675804491
440,sao joao da barra,-21.6403,-41.0511,80.69,87,100,5.64,BR,1675804232
441,jacmel,18.2342,-72.5347,89.44,59,15,6.2,HT,1675804491
442,deputatskiy,69.3,139.9,-46.77,99,58,4.27,RU,1675804332
443,constitucion,-35.3333,-72.4167,69.84,56,12,8.48,CL,1675804492
444,luderitz,-26.6481,15.1594,68.14,77,1,20.42,NA,1675804122
445,anadyr,64.75,177.4833,-24.52,74,0,8.95,RU,1675804090
446,westport,41.1415,-73.3579,39.74,61,100,1.01,US,1675803643
447,richards bay,-28.783,32.0377,74.89,94,72,5.28,ZA,1675803907
448,cravo norte,6.3017,-70.2041,91.53,37,97,10.87,CO,1675804493
449,nampa,43.5407,-116.5635,50.04,56,0,4.61,US,1675804455
450,pochutla,15.7432,-96.4661,85.82,39,0,7.78,MX,1675804494
451,gboko,7.3179,8.9951,86.29,12,7,3.42,NG,1675804494
452,camapua,-19.5314,-54.0439,70.93,94,100,1.74,BR,1675804494
453,tabas,33.5959,56.9244,56.52,64,7,11.63,IR,1675804495
454,dedovichi,57.5517,29.9502,26.98,88,94,9.1,RU,1675804495
455,charters towers,-20.1,146.2667,75.07,87,55,8.39,AU,1675804496
456,witu,-2.3889,40.4382,78.96,89,19,8.63,KE,1675804496
457,tabuk,17.4189,121.4443,70.18,95,18,0.18,PH,1675804497
458,shasta lake,40.6804,-122.3708,54.75,52,100,1.99,US,1675804498
459,vredendal,-31.6683,18.5012,65.98,85,100,6.58,ZA,1675804499
460,champerico,14.3,-91.9167,95.54,59,48,12.41,GT,1675804499
461,kyshtovka,56.555,76.6271,-2.87,100,92,4.76,RU,1675804499
462,broken hill,-31.95,141.4333,70.48,31,0,9.91,AU,1675804055
463,rawah,34.4816,41.9093,48.72,50,63,9.15,IQ,1675804500
464,barentu,15.1139,37.5928,66.65,61,2,5.06,ER,1675804501
465,yokadouma,3.5167,15.05,72.27,25,9,1.48,CM,1675804501
466,ararat,39.8317,44.7049,32.34,92,100,5.84,AM,1675804501
467,gravdal,68.1214,13.5031,39.09,60,40,10.36,NO,1675804503
468,cururupu,-1.8283,-44.8683,77.56,86,100,4.61,BR,1675804504
469,oktyabrskiy,54.4815,53.471,-8.57,100,93,2.37,RU,1675804229
470,chopinzinho,-25.8558,-52.5233,81.27,50,0,2.24,BR,1675804505
471,grand gaube,-20.0064,57.6608,79.2,83,12,7.0,MU,1675804000
472,majalengka,-6.8361,108.2278,73.69,98,100,1.81,ID,1675804505
473,sisimiut,66.9395,-53.6735,-12.32,97,90,3.53,GL,1675804506
474,maniitsoq,65.4167,-52.9,-2.34,91,97,8.95,GL,1675804507
475,mangan,27.5167,88.5333,52.43,89,100,3.8,IN,1675804378
476,beyneu,45.3167,55.2,31.91,81,100,24.27,KZ,1675804508
477,cabedelo,-6.9811,-34.8339,79.54,65,86,12.37,BR,1675804509
478,san lazaro,18.0387,-88.6622,78.13,81,37,10.6,BZ,1675804510
479,san juan,-31.5375,-68.5364,100.98,12,0,7.76,AR,1675803925
480,nyurba,63.2842,118.3319,-41.55,100,100,2.24,RU,1675804511
481,kieta,-6.2167,155.6333,80.17,83,100,5.23,PG,1675804437
482,kardla,58.9978,22.7492,34.05,86,96,13.11,EE,1675804512
483,karratha,-20.7377,116.8463,85.64,61,38,4.76,AU,1675804512
484,egvekinot,66.3167,-179.1667,-23.1,87,97,8.95,RU,1675804058
485,peringat,6.0333,102.2833,73.83,93,92,1.39,MY,1675804513
486,homer,59.6425,-151.5483,31.05,90,100,25.99,US,1675804514
487,kandrian,-6.2167,149.55,78.35,88,100,13.67,PG,1675804515
488,waipawa,-41.4122,175.5153,64.51,70,4,2.89,NZ,1675804516
489,la rioja,42.25,-2.5,29.98,95,82,4.34,ES,1675803984
490,qandala,11.472,49.8728,75.27,82,88,4.76,SO,1675804516
491,port hedland,-20.3167,118.5667,82.45,89,3,0.0,AU,1675804517
492,sao benedito do rio preto,-3.3336,-43.5283,75.81,95,100,3.98,BR,1675804518
493,warrington,53.3925,-2.5802,44.33,85,75,4.61,GB,1675804518
494,souillac,-20.5167,57.5167,76.77,85,42,15.01,MU,1675804400
495,sirmaur,24.85,81.3833,57.96,51,0,4.63,IN,1675804520
496,lhokseumawe,5.1801,97.1507,76.32,85,99,1.48,ID,1675804521
497,mandera,3.9366,41.867,83.8,29,3,4.61,KE,1675804521
498,olafsvik,64.8945,-23.7142,27.41,63,100,34.87,IS,1675804142
499,ayia galini,35.1,24.6833,41.4,75,93,1.99,GR,1675804522
500,carauari,-4.8828,-66.8958,83.44,80,36,1.97,BR,1675804523
501,hobyo,5.3505,48.5268,76.05,78,10,13.0,SO,1675804523
502,takab,36.4009,47.1133,19.13,97,94,2.93,IR,1675804524
503,zhangjiakou,40.81,114.8794,19.02,74,2,5.35,CN,1675804338
504,sao jose da coroa grande,-8.8978,-35.1478,79.02,68,78,8.79,BR,1675804525
505,kahului,20.8947,-156.47,78.96,77,40,25.32,US,1675803943
506,saint-augustin,51.226,-58.6502,-1.1,83,0,1.57,CA,1675804526
507,voznesenskoye,54.89,42.7569,-1.66,100,96,2.48,RU,1675804526
508,chishan,22.6392,120.3565,66.9,86,40,4.61,TW,1675804527
509,aketi,2.7388,23.7833,74.77,34,15,0.58,CD,1675804527
510,surt,31.2089,16.5887,54.9,62,93,14.7,LY,1675804528
511,caranavi,-15.8167,-67.55,71.42,92,89,2.37,BO,1675804529
512,isangel,-19.55,169.2667,80.31,81,100,0.34,VU,1675804061
513,lumeje,-11.55,20.7833,63.84,95,100,4.03,AO,1675804530
514,pangai,-19.8,-174.35,80.26,82,100,18.05,TO,1675804531
515,moose factory,51.2585,-80.6094,22.98,80,100,24.16,CA,1675804532
516,ribas do rio pardo,-20.4431,-53.7592,75.9,87,100,3.89,BR,1675804533
517,yulara,-25.2406,130.9889,77.04,25,0,5.68,AU,1675804303
518,marsa matruh,31.3525,27.2453,52.2,72,93,10.45,EG,1675804081
519,yingcheng,30.95,113.55,50.2,75,100,8.86,CN,1675804534
520,youhao,47.8667,128.8333,-13.25,100,99,0.47,CN,1675804535
521,imeni poliny osipenko,52.4201,136.4853,-17.82,98,100,7.16,RU,1675804374
522,tupiza,-21.45,-65.7167,60.49,58,100,8.59,BO,1675804535
523,evansville,37.9748,-87.5558,59.05,72,100,8.05,US,1675804441
524,am timan,11.0297,20.2827,82.22,13,6,8.16,TD,1675804536
525,labytnangi,66.6572,66.4183,-1.35,94,100,10.42,RU,1675804491
526,carballo,43.213,-8.691,43.75,80,48,12.75,ES,1675804536
527,goundi,9.3627,17.366,83.35,12,9,3.2,TD,1675804537
528,oudtshoorn,-33.5907,22.2014,67.39,80,100,5.79,ZA,1675804537
529,nuevo progreso,23.1667,-97.95,80.89,54,54,8.01,MX,1675804538
530,barra patuca,15.8,-84.2833,78.21,82,35,13.18,HN,1675804538
531,yumen,40.2833,97.2,27.7,53,100,12.15,CN,1675804539
532,verkhoyansk,67.5447,133.385,-56.74,100,78,1.16,RU,1675804540
533,escanaba,45.7453,-87.0646,40.51,56,75,14.97,US,1675804540
534,vikravandi,12.0333,79.55,68.7,90,2,3.65,IN,1675804541
535,dilla,6.41,38.31,62.8,35,4,4.05,ET,1675804541
536,binzhou,37.3667,118.0167,30.49,59,56,6.8,CN,1675804542
537,paamiut,61.994,-49.6678,1.11,81,100,9.91,GL,1675804542
538,den helder,52.9599,4.7593,34.02,86,7,4.61,NL,1675804179
539,jijiga,9.35,42.8,63.45,63,2,7.2,ET,1675804543
540,byron bay,-28.65,153.6167,67.95,70,95,6.15,AU,1675804461
541,santa marinella,42.0345,11.8536,37.71,59,0,5.28,IT,1675804544
542,dunedin,-45.8742,170.5036,58.19,55,29,18.54,NZ,1675804545
543,cayenne,4.9333,-52.3333,78.84,89,75,10.36,GF,1675804545
544,hamina,60.5697,27.1979,33.08,91,89,15.57,FI,1675804545
545,morondava,-20.2833,44.2833,78.39,83,100,4.07,MG,1675804073
546,muravlenko,63.7898,74.523,-14.84,100,92,8.9,RU,1675804548
547,waingapu,-9.6567,120.2641,78.57,87,98,7.85,ID,1675804549
548,kunming,25.0389,102.7183,48.15,48,0,4.29,CN,1675804550
549,ola,59.5833,151.2833,-22.36,86,57,8.88,RU,1675804551
550,booue,-0.0921,11.9385,75.51,89,78,0.92,GA,1675804551
551,slupsk,54.4641,17.0287,31.44,92,80,6.6,PL,1675804552
552,acajutla,13.5928,-89.8275,85.64,51,15,8.05,SV,1675804552
553,cacador,-26.7753,-51.015,77.23,41,65,2.62,BR,1675804552
554,hatillo,18.4863,-66.8254,83.32,79,6,11.99,PR,1675804553
555,conceicao do araguaia,-8.2578,-49.2647,79.61,85,98,2.73,BR,1675804553
556,imbituba,-28.24,-48.6703,77.65,75,24,8.28,BR,1675804554
557,mazyr,52.0495,29.2456,12.63,97,36,3.33,BY,1675804554
558,kabare,-2.4683,28.8242,61.68,89,100,0.87,CD,1675804555
559,kavaratti,10.5669,72.642,79.92,71,95,11.65,IN,1675804298
560,jinxiang,27.4327,120.6062,52.39,83,100,9.28,CN,1675804555
561,kavieng,-2.5744,150.7967,81.03,78,100,7.85,PG,1675804556
